[
    {
        
        name: " (293)",
        "coordinate": {
"latitude": 50.682921,
        "longitude": 16.809271},
"isRequest": false
    },
    {
        
        name: " (286)",
        "coordinate": {
"latitude": 50.69654,
        "longitude": 16.821881},
"isRequest": false
    },
    {
        
        name: " (294)",
        "coordinate": {
"latitude": 50.682985,
        "longitude": 16.809316},
"isRequest": false
    },
    {
        
        name: " (288)",
        "coordinate": {
"latitude": 50.686078,
        "longitude": 16.820174},
"isRequest": false
    },
    {
        
        name: " (287)",
        "coordinate": {
"latitude": 50.685311,
        "longitude": 16.819641},
"isRequest": false
    },
    {
        
        name: " (285)",
        "coordinate": {
"latitude": 50.696056,
        "longitude": 16.822073},
"isRequest": false
    },
    {
        
        name: " (259)",
        "coordinate": {
"latitude": 50.728283,
        "longitude": 16.742521},
"isRequest": false
    },
    {
        
        name: " (260)",
        "coordinate": {
"latitude": 50.728261,
        "longitude": 16.742295},
"isRequest": false
    },
    {
        
        name: "14 działak 93/2 (363)",
        "coordinate": {
"latitude": 50.64509931365942,
        "longitude": 16.61259338572063},
"isRequest": false
    },
    {
        
        name: "9 działak 78/2 (364)",
        "coordinate": {
"latitude": 50.644971893865424,
        "longitude": 16.612364315694244},
"isRequest": false
    },
    {
        
        name: "AUP K.Gajda w Pieszycach (188)",
        "coordinate": {
"latitude": 50.73756,
        "longitude": 16.602416},
"isRequest": false
    },
    {
        
        name: "Ace Rico (21)",
        "coordinate": {
"latitude": 50.671421,
        "longitude": 16.609235},
"isRequest": false
    },
    {
        
        name: "Ace Rico (20)",
        "coordinate": {
"latitude": 50.67078,
        "longitude": 16.609806},
"isRequest": false
    },
    {
        
        name: "Andersa  III (39)",
        "coordinate": {
"latitude": 50.683413,
        "longitude": 16.620286},
"isRequest": false
    },
    {
        
        name: "Andersa I (37)",
        "coordinate": {
"latitude": 50.680813,
        "longitude": 16.622536},
"isRequest": false
    },
    {
        
        name: "Andersa II (38)",
        "coordinate": {
"latitude": 50.68001,
        "longitude": 16.623415},
"isRequest": false
    },
    {
        
        name: "B. Kościół (198)",
        "coordinate": {
"latitude": 50.692245,
        "longitude": 16.703935},
"isRequest": false
    },
    {
        
        name: "B. Kościół (197)",
        "coordinate": {
"latitude": 50.692195,
        "longitude": 16.703856},
"isRequest": false
    },
    {
        
        name: "Bar Kaprys (77)",
        "coordinate": {
"latitude": 50.734826,
        "longitude": 16.641203},
"isRequest": false
    },
    {
        
        name: "Bata (44)",
        "coordinate": {
"latitude": 50.693123,
        "longitude": 16.628578},
"isRequest": false
    },
    {
        
        name: "Bata (42)",
        "coordinate": {
"latitude": 50.693475,
        "longitude": 16.629056},
"isRequest": false
    },
    {
        
        name: "Batalionów Chłopskich (68)",
        "coordinate": {
"latitude": 50.719951,
        "longitude": 16.650228},
"isRequest": false
    },
    {
        
        name: "Batalionów Chłopskich (69)",
        "coordinate": {
"latitude": 50.719418,
        "longitude": 16.649913},
"isRequest": false
    },
    {
        
        name: "Bielawa Camping Sudety (13)",
        "coordinate": {
"latitude": 50.677798,
        "longitude": 16.590336},
"isRequest": false
    },
    {
        
        name: "Bielawa Nowobielawska (4)",
        "coordinate": {
"latitude": 50.661491,
        "longitude": 16.595655},
"isRequest": false
    },
    {
        
        name: "Bielawa Pl. Kościelny (16)",
        "coordinate": {
"latitude": 50.674608,
        "longitude": 16.604068},
"isRequest": false
    },
    {
        
        name: "Bielawa Pl. Kościelny (17)",
        "coordinate": {
"latitude": 50.674251,
        "longitude": 16.604218},
"isRequest": false
    },
    {
        
        name: "Bielawa Słowiańska (11)",
        "coordinate": {
"latitude": 50.669325,
        "longitude": 16.599905},
"isRequest": false
    },
    {
        
        name: "Bielawska Stadion (101)",
        "coordinate": {
"latitude": 50.73311,
        "longitude": 16.656781},
"isRequest": false
    },
    {
        
        name: "Bielbaw (29)",
        "coordinate": {
"latitude": 50.682008,
        "longitude": 16.608875},
"isRequest": false
    },
    {
        
        name: "Bielbaw (30)",
        "coordinate": {
"latitude": 50.682161,
        "longitude": 16.6092},
"isRequest": false
    },
    {
        
        name: "Bieltex I (47)",
        "coordinate": {
"latitude": 50.695145,
        "longitude": 16.637528},
"isRequest": false
    },
    {
        
        name: "Bieltex I (46)",
        "coordinate": {
"latitude": 50.695393,
        "longitude": 16.63842},
"isRequest": false
    },
    {
        
        name: "BoBo (208)",
        "coordinate": {
"latitude": 50.68193,
        "longitude": 16.750891},
"isRequest": false
    },
    {
        
        name: "BoBo (209)",
        "coordinate": {
"latitude": 50.682031,
        "longitude": 16.75068},
"isRequest": false
    },
    {
        
        name: "Bohaterów Getta (56)",
        "coordinate": {
"latitude": 50.692756,
        "longitude": 16.619108},
"isRequest": false
    },
    {
        
        name: "Bohaterów Getta (57)",
        "coordinate": {
"latitude": 50.692821,
        "longitude": 16.619126},
"isRequest": false
    },
    {
        
        name: "Bratoszów II (181)",
        "coordinate": {
"latitude": 50.74655,
        "longitude": 16.586311},
"isRequest": false
    },
    {
        
        name: "Brzegowa (102)",
        "coordinate": {
"latitude": 50.72824,
        "longitude": 16.638483},
"isRequest": false
    },
    {
        
        name: "Cicha (2)",
        "coordinate": {
"latitude": 50.658398,
        "longitude": 16.59364},
"isRequest": false
    },
    {
        
        name: "Cicha (1)",
        "coordinate": {
"latitude": 50.652091,
        "longitude": 16.582955},
"isRequest": false
    },
    {
        
        name: "Cmentarz Komunalny (90)",
        "coordinate": {
"latitude": 50.738703,
        "longitude": 16.66233},
"isRequest": false
    },
    {
        
        name: "Cmentarz Komunalny (51)",
        "coordinate": {
"latitude": 50.676693,
        "longitude": 16.63767},
"isRequest": false
    },
    {
        
        name: "Cz. Kościół (199)",
        "coordinate": {
"latitude": 50.685991,
        "longitude": 16.716273},
"isRequest": false
    },
    {
        
        name: "Cz. Kościół (200)",
        "coordinate": {
"latitude": 50.685803,
        "longitude": 16.716575},
"isRequest": false
    },
    {
        
        name: "Diora (78)",
        "coordinate": {
"latitude": 50.733636,
        "longitude": 16.642598},
"isRequest": false
    },
    {
        
        name: "Dolne (156)",
        "coordinate": {
"latitude": 50.686053,
        "longitude": 16.546013},
"isRequest": false
    },
    {
        
        name: "Dolne (157)",
        "coordinate": {
"latitude": 50.686041,
        "longitude": 16.546066},
"isRequest": false
    },
    {
        
        name: "Dolne (187)",
        "coordinate": {
"latitude": 50.725423,
        "longitude": 16.596171},
"isRequest": false
    },
    {
        
        name: "Dworzec PKP (214)",
        "coordinate": {
"latitude": 50.677508,
        "longitude": 16.771851},
"isRequest": false
    },
    {
        
        name: "Dworzec PKP (215)",
        "coordinate": {
"latitude": 50.677578,
        "longitude": 16.771865},
"isRequest": false
    },
    {
        
        name: "Dworzec PKS Kopernika (87)",
        "coordinate": {
"latitude": 50.72458047266931,
        "longitude": 16.650711570776426},
"isRequest": false
    },
    {
        
        name: "Dworzec PKS Kopernika (86)",
        "coordinate": {
"latitude": 50.724808,
        "longitude": 16.64929},
"isRequest": false
    },
    {
        
        name: "Dworzec PKS młyn (70)",
        "coordinate": {
"latitude": 50.725123,
        "longitude": 16.653868},
"isRequest": false
    },
    {
        
        name: "Dzierzoniów  Piłsudskiego (72)",
        "coordinate": {
"latitude": 50.72992,
        "longitude": 16.653388},
"isRequest": false
    },
    {
        
        name: "Dzierzoniów  Piłsudskiego (71)",
        "coordinate": {
"latitude": 50.73015873827369,
        "longitude": 16.652470813492187},
"isRequest": false
    },
    {
        
        name: "Dzierzoniów Os. Zielone (115)",
        "coordinate": {
"latitude": 50.743448,
        "longitude": 16.638635},
"isRequest": false
    },
    {
        
        name: "Dzierżoniów  ul.Strefowa (128)",
        "coordinate": {
"latitude": 50.731993,
        "longitude": 16.622788},
"isRequest": false
    },
    {
        
        name: "Dzierżoniów DT.Ślązak (85)",
        "coordinate": {
"latitude": 50.72577,
        "longitude": 16.645711},
"isRequest": false
    },
    {
        
        name: "Dzierżoniów Dolny Nowowiejska (107)",
        "coordinate": {
"latitude": 50.746596,
        "longitude": 16.620781},
"isRequest": false
    },
    {
        
        name: "Dzierżoniów Strefa Metzeler (123)",
        "coordinate": {
"latitude": 50.726863,
        "longitude": 16.63007},
"isRequest": false
    },
    {
        
        name: "Dzierżoniów dworzec  PKP (81)",
        "coordinate": {
"latitude": 50.72497238929096,
        "longitude": 16.640640470886275},
"isRequest": false
    },
    {
        
        name: "Fabryka Mebli (stawy) (2272)",
        "coordinate": {
"latitude": 0,
        "longitude": 0},
"isRequest": false
    },
    {
        
        name: "Fabryka Mebli (stawy) (2271)",
        "coordinate": {
"latitude": 0,
        "longitude": 0},
"isRequest": false
    },
    {
        
        name: "Frankowskiego (18)",
        "coordinate": {
"latitude": 50.674135,
        "longitude": 16.60298},
"isRequest": false
    },
    {
        
        name: "Gazownia (49)",
        "coordinate": {
"latitude": 50.702553,
        "longitude": 16.644515},
"isRequest": false
    },
    {
        
        name: "Gazownia (48)",
        "coordinate": {
"latitude": 50.701316,
        "longitude": 16.643836},
"isRequest": false
    },
    {
        
        name: "Gola Dzierżoniowska (272)",
        "coordinate": {
"latitude": 50.73792,
        "longitude": 16.798246},
"isRequest": false
    },
    {
        
        name: "Gola Dzierżoniowska (271)",
        "coordinate": {
"latitude": 50.739068,
        "longitude": 16.791501},
"isRequest": false
    },
    {
        
        name: "Grodziszcze Sklep (237)",
        "coordinate": {
"latitude": 50.625396,
        "longitude": 16.653791},
"isRequest": false
    },
    {
        
        name: "Góra Parkowa (32)",
        "coordinate": {
"latitude": 50.679343,
        "longitude": 16.61335},
"isRequest": false
    },
    {
        
        name: "Góra Parkowa (31)",
        "coordinate": {
"latitude": 50.68003,
        "longitude": 16.612923},
"isRequest": false
    },
    {
        
        name: "Hotel \"Pod Wielką Sową\" (59)",
        "coordinate": {
"latitude": 50.686578,
        "longitude": 16.616686},
"isRequest": false
    },
    {
        
        name: "I (217)",
        "coordinate": {
"latitude": 50.68899,
        "longitude": 16.782281},
"isRequest": false
    },
    {
        
        name: "I (290)",
        "coordinate": {
"latitude": 50.692161,
        "longitude": 16.849891},
"isRequest": false
    },
    {
        
        name: "I (224)",
        "coordinate": {
"latitude": 50.653283,
        "longitude": 16.63374},
"isRequest": false
    },
    {
        
        name: "I (235)",
        "coordinate": {
"latitude": 50.629728,
        "longitude": 16.647371},
"isRequest": false
    },
    {
        
        name: "I (216)",
        "coordinate": {
"latitude": 50.68899,
        "longitude": 16.782281},
"isRequest": false
    },
    {
        
        name: "I (261)",
        "coordinate": {
"latitude": 50.723866,
        "longitude": 16.752921},
"isRequest": false
    },
    {
        
        name: "I (270)",
        "coordinate": {
"latitude": 0,
        "longitude": 0},
"isRequest": false
    },
    {
        
        name: "I (238)",
        "coordinate": {
"latitude": 50.6205,
        "longitude": 16.659546},
"isRequest": false
    },
    {
        
        name: "I (170)",
        "coordinate": {
"latitude": 50.709231,
        "longitude": 16.550711},
"isRequest": false
    },
    {
        
        name: "I (245)",
        "coordinate": {
"latitude": 50.732171,
        "longitude": 16.696561},
"isRequest": false
    },
    {
        
        name: "I (239)",
        "coordinate": {
"latitude": 50.62028,
        "longitude": 16.660106},
"isRequest": false
    },
    {
        
        name: "I (236)",
        "coordinate": {
"latitude": 50.6298,
        "longitude": 16.647335},
"isRequest": false
    },
    {
        
        name: "I (269)",
        "coordinate": {
"latitude": 0,
        "longitude": 0},
"isRequest": false
    },
    {
        
        name: "I (192)",
        "coordinate": {
"latitude": 50.706746,
        "longitude": 16.680111},
"isRequest": false
    },
    {
        
        name: "I (223)",
        "coordinate": {
"latitude": 50.653283,
        "longitude": 16.63374},
"isRequest": false
    },
    {
        
        name: "I (177)",
        "coordinate": {
"latitude": 50.73402,
        "longitude": 16.562267},
"isRequest": false
    },
    {
        
        name: "I (191)",
        "coordinate": {
"latitude": 50.707953,
        "longitude": 16.678421},
"isRequest": false
    },
    {
        
        name: "I (180)",
        "coordinate": {
"latitude": 50.744591,
        "longitude": 16.590988},
"isRequest": false
    },
    {
        
        name: "I (158)",
        "coordinate": {
"latitude": 50.681281,
        "longitude": 16.543455},
"isRequest": false
    },
    {
        
        name: "I (246)",
        "coordinate": {
"latitude": 50.732096,
        "longitude": 16.69674},
"isRequest": false
    },
    {
        
        name: "I (251)",
        "coordinate": {
"latitude": 50.739828,
        "longitude": 16.721035},
"isRequest": false
    },
    {
        
        name: "I (252)",
        "coordinate": {
"latitude": 50.740451,
        "longitude": 16.72369},
"isRequest": false
    },
    {
        
        name: "I (291)",
        "coordinate": {
"latitude": 50.692258,
        "longitude": 16.850395},
"isRequest": false
    },
    {
        
        name: "I (262)",
        "coordinate": {
"latitude": 50.723803,
        "longitude": 16.752933},
"isRequest": false
    },
    {
        
        name: "I (169)",
        "coordinate": {
"latitude": 50.708863,
        "longitude": 16.54834},
"isRequest": false
    },
    {
        
        name: "I (159)",
        "coordinate": {
"latitude": 50.681281,
        "longitude": 16.543455},
"isRequest": false
    },
    {
        
        name: "II (249)",
        "coordinate": {
"latitude": 50.737085,
        "longitude": 16.713688},
"isRequest": false
    },
    {
        
        name: "II (160)",
        "coordinate": {
"latitude": 50.676238,
        "longitude": 16.544385},
"isRequest": false
    },
    {
        
        name: "II (268)",
        "coordinate": {
"latitude": 50.720243,
        "longitude": 16.78396},
"isRequest": false
    },
    {
        
        name: "II (241)",
        "coordinate": {
"latitude": 50.61641,
        "longitude": 16.666696},
"isRequest": false
    },
    {
        
        name: "II (240)",
        "coordinate": {
"latitude": 50.616366,
        "longitude": 16.666741},
"isRequest": false
    },
    {
        
        name: "II (171)",
        "coordinate": {
"latitude": 50.7073,
        "longitude": 16.54131},
"isRequest": false
    },
    {
        
        name: "II (178)",
        "coordinate": {
"latitude": 50.742006,
        "longitude": 16.571325},
"isRequest": false
    },
    {
        
        name: "II (161)",
        "coordinate": {
"latitude": 50.676238,
        "longitude": 16.544385},
"isRequest": false
    },
    {
        
        name: "II (250)",
        "coordinate": {
"latitude": 50.736933,
        "longitude": 16.712993},
"isRequest": false
    },
    {
        
        name: "II (172)",
        "coordinate": {
"latitude": 50.7073,
        "longitude": 16.541615},
"isRequest": false
    },
    {
        
        name: "II (267)",
        "coordinate": {
"latitude": 50.720265,
        "longitude": 16.784495},
"isRequest": false
    },
    {
        
        name: "III (173)",
        "coordinate": {
"latitude": 50.704135,
        "longitude": 16.534306},
"isRequest": false
    },
    {
        
        name: "III (174)",
        "coordinate": {
"latitude": 50.70398,
        "longitude": 16.534153},
"isRequest": false
    },
    {
        
        name: "III (179)",
        "coordinate": {
"latitude": 50.747615,
        "longitude": 16.572156},
"isRequest": false
    },
    {
        
        name: "IX oddział (148)",
        "coordinate": {
"latitude": 50.702645,
        "longitude": 16.572123},
"isRequest": false
    },
    {
        
        name: "IX oddział (149)",
        "coordinate": {
"latitude": 50.703598,
        "longitude": 16.573303},
"isRequest": false
    },
    {
        
        name: "Jodłownicka działka 114/1 (361)",
        "coordinate": {
"latitude": 50.64584354896079,
        "longitude": 16.62610159043838},
"isRequest": false
    },
    {
        
        name: "Jodłownicka działka 117/16 (362)",
        "coordinate": {
"latitude": 50.64562037690518,
        "longitude": 16.6249854203855},
"isRequest": false
    },
    {
        
        name: "Jodłownik (6)",
        "coordinate": {
"latitude": 50.648795,
        "longitude": 16.610488},
"isRequest": false
    },
    {
        
        name: "Józefówek (25)",
        "coordinate": {
"latitude": 50.66041,
        "longitude": 16.62469},
"isRequest": false
    },
    {
        
        name: "Józefówek (26)",
        "coordinate": {
"latitude": 50.660736,
        "longitude": 16.624405},
"isRequest": false
    },
    {
        
        name: "Kamieniołomy (210)",
        "coordinate": {
"latitude": 50.681956,
        "longitude": 16.759693},
"isRequest": false
    },
    {
        
        name: "Kamieniołomy (211)",
        "coordinate": {
"latitude": 50.682295,
        "longitude": 16.760653},
"isRequest": false
    },
    {
        
        name: "Kamionki III (162)",
        "coordinate": {
"latitude": 50.67231,
        "longitude": 16.542805},
"isRequest": false
    },
    {
        
        name: "Kasztanowa (108)",
        "coordinate": {
"latitude": 50.747351,
        "longitude": 16.63943},
"isRequest": false
    },
    {
        
        name: "Kasztanowa (14)",
        "coordinate": {
"latitude": 50.674175,
        "longitude": 16.5981},
"isRequest": false
    },
    {
        
        name: "Kietlin (274)",
        "coordinate": {
"latitude": 50.744938,
        "longitude": 16.831113},
"isRequest": false
    },
    {
        
        name: "Kietlin (273)",
        "coordinate": {
"latitude": 50.744938,
        "longitude": 16.831113},
"isRequest": false
    },
    {
        
        name: "Kilińskiego (83)",
        "coordinate": {
"latitude": 50.725973,
        "longitude": 16.636506},
"isRequest": false
    },
    {
        
        name: "Kilińskiego (140)",
        "coordinate": {
"latitude": 50.725671,
        "longitude": 16.635356},
"isRequest": false
    },
    {
        
        name: "Kolonia Dorotka (176)",
        "coordinate": {
"latitude": 50.728731,
        "longitude": 16.565029},
"isRequest": false
    },
    {
        
        name: "Korczaka (91)",
        "coordinate": {
"latitude": 50.739622853396774,
        "longitude": 16.655668044319093},
"isRequest": false
    },
    {
        
        name: "Korczaka (92)",
        "coordinate": {
"latitude": 50.740207305091815,
        "longitude": 16.654699311500327},
"isRequest": false
    },
    {
        
        name: "Kościuszki (79)",
        "coordinate": {
"latitude": 50.729709,
        "longitude": 16.642877},
"isRequest": false
    },
    {
        
        name: "Kościuszki (80)",
        "coordinate": {
"latitude": 50.7311,
        "longitude": 16.644391},
"isRequest": false
    },
    {
        
        name: "Kośmin (218)",
        "coordinate": {
"latitude": 50.693788,
        "longitude": 16.781386},
"isRequest": false
    },
    {
        
        name: "Kółko Rolnicze (186)",
        "coordinate": {
"latitude": 50.732913,
        "longitude": 16.605728},
"isRequest": false
    },
    {
        
        name: "KŁSOK Sp. z o.o. (65)",
        "coordinate": {
"latitude": 50.715978,
        "longitude": 16.650713},
"isRequest": false
    },
    {
        
        name: "L.O. (Pl. Wolności) (61)",
        "coordinate": {
"latitude": 50.683026,
        "longitude": 16.612836},
"isRequest": false
    },
    {
        
        name: "LOK (58)",
        "coordinate": {
"latitude": 50.688805,
        "longitude": 16.622065},
"isRequest": false
    },
    {
        
        name: "Lidl (76)",
        "coordinate": {
"latitude": 50.737878,
        "longitude": 16.638063},
"isRequest": false
    },
    {
        
        name: "Ludowa (28)",
        "coordinate": {
"latitude": 50.677746,
        "longitude": 16.605693},
"isRequest": false
    },
    {
        
        name: "Ludowa (27)",
        "coordinate": {
"latitude": 50.678456,
        "longitude": 16.606},
"isRequest": false
    },
    {
        
        name: "MZK (66)",
        "coordinate": {
"latitude": 50.715416,
        "longitude": 16.650555},
"isRequest": false
    },
    {
        
        name: "MZK (67)",
        "coordinate": {
"latitude": 50.715253,
        "longitude": 16.650285},
"isRequest": false
    },
    {
        
        name: "Myśliszów (52)",
        "coordinate": {
"latitude": 50.673616,
        "longitude": 16.646763},
"isRequest": false
    },
    {
        
        name: "Niemcza Remiza (284)",
        "coordinate": {
"latitude": 50.713503,
        "longitude": 16.833686},
"isRequest": false
    },
    {
        
        name: "Niemcza dworzec PKP (280)",
        "coordinate": {
"latitude": 50.723363,
        "longitude": 16.836246},
"isRequest": false
    },
    {
        
        name: "Niemcza dworzec PKP (281)",
        "coordinate": {
"latitude": 50.723323,
        "longitude": 16.836338},
"isRequest": false
    },
    {
        
        name: "Nowobielawska II (3)",
        "coordinate": {
"latitude": 50.657203,
        "longitude": 16.592446},
"isRequest": false
    },
    {
        
        name: "Nowobielawska III (301)",
        "coordinate": {
"latitude": 0,
        "longitude": 0},
"isRequest": false
    },
    {
        
        name: "Nowobielawska III (302)",
        "coordinate": {
"latitude": 0,
        "longitude": 0},
"isRequest": false
    },
    {
        
        name: "Nowowiejska (109)",
        "coordinate": {
"latitude": 50.741073,
        "longitude": 16.626645},
"isRequest": false
    },
    {
        
        name: "Nowowiejska Szkoła (112)",
        "coordinate": {
"latitude": 50.739546,
        "longitude": 16.631925},
"isRequest": false
    },
    {
        
        name: "Ogrodowa (142)",
        "coordinate": {
"latitude": 50.714973,
        "longitude": 16.586993},
"isRequest": false
    },
    {
        
        name: "Ogrodowa (143)",
        "coordinate": {
"latitude": 50.7149,
        "longitude": 16.587008},
"isRequest": false
    },
    {
        
        name: "Ogródki działkowe (63)",
        "coordinate": {
"latitude": 50.695511,
        "longitude": 16.613898},
"isRequest": false
    },
    {
        
        name: "Ogródki działkowe (62)",
        "coordinate": {
"latitude": 50.694913,
        "longitude": 16.614988},
"isRequest": false
    },
    {
        
        name: "Ogródki działkowe (114)",
        "coordinate": {
"latitude": 50.730151,
        "longitude": 16.672801},
"isRequest": false
    },
    {
        
        name: "Ogródki działkowe (113)",
        "coordinate": {
"latitude": 50.730203,
        "longitude": 16.672655},
"isRequest": false
    },
    {
        
        name: "Os. Białe (12)",
        "coordinate": {
"latitude": 50.673498,
        "longitude": 16.596043},
"isRequest": false
    },
    {
        
        name: "Os. Błękitne (97)",
        "coordinate": {
"latitude": 50.737558,
        "longitude": 16.641568},
"isRequest": false
    },
    {
        
        name: "Os. Jasne (73)",
        "coordinate": {
"latitude": 50.73415159632134,
        "longitude": 16.650347186508128},
"isRequest": false
    },
    {
        
        name: "Os. Jasne (74)",
        "coordinate": {
"latitude": 50.734500175513865,
        "longitude": 16.650389822091224},
"isRequest": false
    },
    {
        
        name: "Os. Młyńskie (205)",
        "coordinate": {
"latitude": 50.683825,
        "longitude": 16.736046},
"isRequest": false
    },
    {
        
        name: "Os. Młyńskie (204)",
        "coordinate": {
"latitude": 50.683776,
        "longitude": 16.735925},
"isRequest": false
    },
    {
        
        name: "Os. Podmiejskie (278)",
        "coordinate": {
"latitude": 50.72181,
        "longitude": 16.828266},
"isRequest": false
    },
    {
        
        name: "Os. Podmiejskie (279)",
        "coordinate": {
"latitude": 50.721748,
        "longitude": 16.828228},
"isRequest": false
    },
    {
        
        name: "Os. Tęczowe (75)",
        "coordinate": {
"latitude": 50.738376,
        "longitude": 16.63946},
"isRequest": false
    },
    {
        
        name: "Os. XXV-lecia (40)",
        "coordinate": {
"latitude": 50.68432,
        "longitude": 16.619266},
"isRequest": false
    },
    {
        
        name: "Os. Zielone II (116)",
        "coordinate": {
"latitude": 50.743736,
        "longitude": 16.63485},
"isRequest": false
    },
    {
        
        name: "Osiedle Górskie (297)",
        "coordinate": {
"latitude": 50.704242,
        "longitude": 16.573859},
"isRequest": false
    },
    {
        
        name: "Osiedle Górskie (296)",
        "coordinate": {
"latitude": 50.70402,
        "longitude": 16.573817},
"isRequest": false
    },
    {
        
        name: "Ostroszowice Ośrodek zdrowia (232)",
        "coordinate": {
"latitude": 50.635265,
        "longitude": 16.642675},
"isRequest": false
    },
    {
        
        name: "Ostroszowice Ośrodek zdrowia (233)",
        "coordinate": {
"latitude": 50.63534,
        "longitude": 16.642768},
"isRequest": false
    },
    {
        
        name: "Ostroszowicka (19)",
        "coordinate": {
"latitude": 50.674745,
        "longitude": 16.604745},
"isRequest": false
    },
    {
        
        name: "PIESZYCE - DZIERŻONIÓW) (129)",
        "coordinate": {
"latitude": 50.74231,
        "longitude": 16.612508},
"isRequest": false
    },
    {
        
        name: "POM (190)",
        "coordinate": {
"latitude": 50.713093,
        "longitude": 16.673775},
"isRequest": false
    },
    {
        
        name: "POM (189)",
        "coordinate": {
"latitude": 50.713295,
        "longitude": 16.673278},
"isRequest": false
    },
    {
        
        name: "Parkowa (41)",
        "coordinate": {
"latitude": 50.686816,
        "longitude": 16.622786},
"isRequest": false
    },
    {
        
        name: "Pieszyce - Dzierżoniów (84)",
        "coordinate": {
"latitude": 50.724235,
        "longitude": 16.627318},
"isRequest": false
    },
    {
        
        name: "Pieszyce Bielawska (164)",
        "coordinate": {
"latitude": 50.715943,
        "longitude": 16.586248},
"isRequest": false
    },
    {
        
        name: "Pieszyce Bielawska (163)",
        "coordinate": {
"latitude": 50.715765,
        "longitude": 16.587015},
"isRequest": false
    },
    {
        
        name: "Pieszyce Mostek (154)",
        "coordinate": {
"latitude": 50.691255,
        "longitude": 16.554741},
"isRequest": false
    },
    {
        
        name: "Pieszyce Mostek (155)",
        "coordinate": {
"latitude": 50.691408,
        "longitude": 16.555272},
"isRequest": false
    },
    {
        
        name: "Pieszyce Sklep (150)",
        "coordinate": {
"latitude": 50.699455,
        "longitude": 16.568421},
"isRequest": false
    },
    {
        
        name: "Pieszyce Sklep (151)",
        "coordinate": {
"latitude": 50.69979,
        "longitude": 16.569091},
"isRequest": false
    },
    {
        
        name: "Piława Górna Kopanica (219)",
        "coordinate": {
"latitude": 50.67219,
        "longitude": 16.780786},
"isRequest": false
    },
    {
        
        name: "Poczta (229)",
        "coordinate": {
"latitude": 50.643606,
        "longitude": 16.639465},
"isRequest": false
    },
    {
        
        name: "Poczta (228)",
        "coordinate": {
"latitude": 50.64385,
        "longitude": 16.639081},
"isRequest": false
    },
    {
        
        name: "Podlesie (292)",
        "coordinate": {
"latitude": 50.687148,
        "longitude": 16.857326},
"isRequest": false
    },
    {
        
        name: "Przedszkole (347)",
        "coordinate": {
"latitude": 50.75485985159461,
        "longitude": 16.681714904429676},
"isRequest": false
    },
    {
        
        name: "Remiza (195)",
        "coordinate": {
"latitude": 50.69617,
        "longitude": 16.69527},
"isRequest": false
    },
    {
        
        name: "Remiza (196)",
        "coordinate": {
"latitude": 50.69747,
        "longitude": 16.694223},
"isRequest": false
    },
    {
        
        name: "Rościszów IV (175)",
        "coordinate": {
"latitude": 50.705533,
        "longitude": 16.52534},
"isRequest": false
    },
    {
        
        name: "Rudnica III (242)",
        "coordinate": {
"latitude": 50.611918,
        "longitude": 16.6753},
"isRequest": false
    },
    {
        
        name: "Rudnica III (243)",
        "coordinate": {
"latitude": 50.611933,
        "longitude": 16.675381},
"isRequest": false
    },
    {
        
        name: "Sanatoryjna (166)",
        "coordinate": {
"latitude": 50.712361,
        "longitude": 16.571425},
"isRequest": false
    },
    {
        
        name: "Sanatoryjna (165)",
        "coordinate": {
"latitude": 50.712395,
        "longitude": 16.57129},
"isRequest": false
    },
    {
        
        name: "Sikorskiego (33)",
        "coordinate": {
"latitude": 50.678351,
        "longitude": 16.619393},
"isRequest": false
    },
    {
        
        name: "Sikorskiego (34)",
        "coordinate": {
"latitude": 50.678491,
        "longitude": 16.62063},
"isRequest": false
    },
    {
        
        name: "Sikorskiego I (94)",
        "coordinate": {
"latitude": 50.7366559283571,
        "longitude": 16.647580583992205},
"isRequest": false
    },
    {
        
        name: "Sikorskiego I (93)",
        "coordinate": {
"latitude": 50.73713951623782,
        "longitude": 16.647880780426465},
"isRequest": false
    },
    {
        
        name: "Sikorskiego II (95)",
        "coordinate": {
"latitude": 50.74020293204104,
        "longitude": 16.65127158531975},
"isRequest": false
    },
    {
        
        name: "Sikorskiego II (96)",
        "coordinate": {
"latitude": 50.73975904193937,
        "longitude": 16.650967406081612},
"isRequest": false
    },
    {
        
        name: "Sikorskiego Rondo (36)",
        "coordinate": {
"latitude": 50.679506,
        "longitude": 16.625546},
"isRequest": false
    },
    {
        
        name: "Sikorskiego Rondo (35)",
        "coordinate": {
"latitude": 50.679741,
        "longitude": 16.625978},
"isRequest": false
    },
    {
        
        name: "Sklep (225)",
        "coordinate": {
"latitude": 50.650121,
        "longitude": 16.636676},
"isRequest": false
    },
    {
        
        name: "Sklep (264)",
        "coordinate": {
"latitude": 50.721375,
        "longitude": 16.76444},
"isRequest": false
    },
    {
        
        name: "Sklep (248)",
        "coordinate": {
"latitude": 50.733698,
        "longitude": 16.706573},
"isRequest": false
    },
    {
        
        name: "Sklep (277)",
        "coordinate": {
"latitude": 50.751473,
        "longitude": 16.847505},
"isRequest": false
    },
    {
        
        name: "Sklep (263)",
        "coordinate": {
"latitude": 50.721423,
        "longitude": 16.764413},
"isRequest": false
    },
    {
        
        name: "Sklep (289)",
        "coordinate": {
"latitude": 50.685381,
        "longitude": 16.82396},
"isRequest": false
    },
    {
        
        name: "Sklep (247)",
        "coordinate": {
"latitude": 50.733821,
        "longitude": 16.706608},
"isRequest": false
    },
    {
        
        name: "Sklep (226)",
        "coordinate": {
"latitude": 50.649993,
        "longitude": 16.636738},
"isRequest": false
    },
    {
        
        name: "Sowia (7)",
        "coordinate": {
"latitude": 50.666633,
        "longitude": 16.601405},
"isRequest": false
    },
    {
        
        name: "Sowia (8)",
        "coordinate": {
"latitude": 50.666895,
        "longitude": 16.601695},
"isRequest": false
    },
    {
        
        name: "Stacja Bielawa Zachodnia (306)",
        "coordinate": {
"latitude": 0,
        "longitude": 0},
"isRequest": false
    },
    {
        
        name: "Staszica (121)",
        "coordinate": {
"latitude": 50.720208,
        "longitude": 16.65726},
"isRequest": false
    },
    {
        
        name: "Staw (203)",
        "coordinate": {
"latitude": 50.682336,
        "longitude": 16.72549},
"isRequest": false
    },
    {
        
        name: "Staw (202)",
        "coordinate": {
"latitude": 50.682033,
        "longitude": 16.725635},
"isRequest": false
    },
    {
        
        name: "Strefa Ekonomiczna (122)",
        "coordinate": {
"latitude": 50.729376,
        "longitude": 16.630026},
"isRequest": false
    },
    {
        
        name: "Strefa Orion (124)",
        "coordinate": {
"latitude": 50.728985,
        "longitude": 16.625548},
"isRequest": false
    },
    {
        
        name: "Strefowa I (303)",
        "coordinate": {
"latitude": 50.74197665037257,
        "longitude": 16.612657267559293},
"isRequest": false
    },
    {
        
        name: "Strefowa II (304)",
        "coordinate": {
"latitude": 50.74151494702591,
        "longitude": 16.612750967358807},
"isRequest": false
    },
    {
        
        name: "Strefowa III (305)",
        "coordinate": {
"latitude": 50.73604961401628,
        "longitude": 16.616733750915536},
"isRequest": false
    },
    {
        
        name: "Szewska (22)",
        "coordinate": {
"latitude": 50.664306,
        "longitude": 16.618896},
"isRequest": false
    },
    {
        
        name: "Szewska (23)",
        "coordinate": {
"latitude": 50.664248,
        "longitude": 16.619135},
"isRequest": false
    },
    {
        
        name: "Szkoła (193)",
        "coordinate": {
"latitude": 50.702843,
        "longitude": 16.686598},
"isRequest": false
    },
    {
        
        name: "Szkoła (213)",
        "coordinate": {
"latitude": 50.681076,
        "longitude": 16.766923},
"isRequest": false
    },
    {
        
        name: "Szkoła (185)",
        "coordinate": {
"latitude": 50.726313,
        "longitude": 16.596456},
"isRequest": false
    },
    {
        
        name: "Szkoła (194)",
        "coordinate": {
"latitude": 50.70264,
        "longitude": 16.687386},
"isRequest": false
    },
    {
        
        name: "Szkoła (212)",
        "coordinate": {
"latitude": 50.681113,
        "longitude": 16.76681},
"isRequest": false
    },
    {
        
        name: "Słowackiego (282)",
        "coordinate": {
"latitude": 50.715678,
        "longitude": 16.837225},
"isRequest": false
    },
    {
        
        name: "Słowackiego (283)",
        "coordinate": {
"latitude": 50.715561,
        "longitude": 16.837076},
"isRequest": false
    },
    {
        
        name: "Technika Szpitalna (127)",
        "coordinate": {
"latitude": 50.734158,
        "longitude": 16.635188},
"isRequest": false
    },
    {
        
        name: "Technika Szpitalna (126)",
        "coordinate": {
"latitude": 50.733443,
        "longitude": 16.634298},
"isRequest": false
    },
    {
        
        name: "Tkalnia (182)",
        "coordinate": {
"latitude": 50.722605,
        "longitude": 16.590325},
"isRequest": false
    },
    {
        
        name: "Urząd Miejski (167)",
        "coordinate": {
"latitude": 50.712205,
        "longitude": 16.580366},
"isRequest": false
    },
    {
        
        name: "Urząd Miejski (145)",
        "coordinate": {
"latitude": 50.71148,
        "longitude": 16.583193},
"isRequest": false
    },
    {
        
        name: "Urząd Miejski (144)",
        "coordinate": {
"latitude": 50.711328,
        "longitude": 16.582878},
"isRequest": false
    },
    {
        
        name: "Urząd Miejski (168)",
        "coordinate": {
"latitude": 50.712306,
        "longitude": 16.581278},
"isRequest": false
    },
    {
        
        name: "VII oddział (152)",
        "coordinate": {
"latitude": 50.695911,
        "longitude": 16.563013},
"isRequest": false
    },
    {
        
        name: "VII oddział (153)",
        "coordinate": {
"latitude": 50.695453,
        "longitude": 16.56231},
"isRequest": false
    },
    {
        
        name: "Waryńskiego (Bieltex V) (10)",
        "coordinate": {
"latitude": 50.669593,
        "longitude": 16.603583},
"isRequest": false
    },
    {
        
        name: "Waryńskiego (Bieltex V) (9)",
        "coordinate": {
"latitude": 50.670146,
        "longitude": 16.603448},
"isRequest": false
    },
    {
        
        name: "Wieś (254)",
        "coordinate": {
"latitude": 50.74406,
        "longitude": 16.732718},
"isRequest": false
    },
    {
        
        name: "Wieś (253)",
        "coordinate": {
"latitude": 50.744123,
        "longitude": 16.732325},
"isRequest": false
    },
    {
        
        name: "Wieś II (255)",
        "coordinate": {
"latitude": 50.741111,
        "longitude": 16.737908},
"isRequest": false
    },
    {
        
        name: "Wojska Polskiego I (131)",
        "coordinate": {
"latitude": 50.723098,
        "longitude": 16.664985},
"isRequest": false
    },
    {
        
        name: "Wojska Polskiego I (130)",
        "coordinate": {
"latitude": 50.722418,
        "longitude": 16.665911},
"isRequest": false
    },
    {
        
        name: "Wojska Polskiego II (141)",
        "coordinate": {
"latitude": 50.719718,
        "longitude": 16.668531},
"isRequest": false
    },
    {
        
        name: "Wrocławska (szkoła nr 4) (89)",
        "coordinate": {
"latitude": 50.7365,
        "longitude": 16.658848},
"isRequest": false
    },
    {
        
        name: "Wrocławska (szkoła nr 4) (88)",
        "coordinate": {
"latitude": 50.736085,
        "longitude": 16.658693},
"isRequest": false
    },
    {
        
        name: "Zajezdnia Kłosok (Zajezdn)",
        "coordinate": {
"latitude": 0,
        "longitude": 0},
"isRequest": false
    },
    {
        
        name: "Zajezdnia PKS (133)",
        "coordinate": {
"latitude": 50.724691,
        "longitude": 16.629685},
"isRequest": false
    },
    {
        
        name: "Zakład Stolarski (231)",
        "coordinate": {
"latitude": 50.639958,
        "longitude": 16.639125},
"isRequest": false
    },
    {
        
        name: "Zakład Stolarski (230)",
        "coordinate": {
"latitude": 50.639003,
        "longitude": 16.639643},
"isRequest": false
    },
    {
        
        name: "Zakłady Mechaniczne (221)",
        "coordinate": {
"latitude": 50.6757,
        "longitude": 16.779728},
"isRequest": false
    },
    {
        
        name: "Zakłady Mechaniczne (220)",
        "coordinate": {
"latitude": 50.675736,
        "longitude": 16.778835},
"isRequest": false
    },
    {
        
        name: "Ząbkowicka (135)",
        "coordinate": {
"latitude": 50.727095,
        "longitude": 16.65664},
"isRequest": false
    },
    {
        
        name: "Ząbkowicka (136)",
        "coordinate": {
"latitude": 50.72701,
        "longitude": 16.65679},
"isRequest": false
    },
    {
        
        name: "Złota II (137)",
        "coordinate": {
"latitude": 50.735423,
        "longitude": 16.636745},
"isRequest": false
    },
    {
        
        name: "Złota III (138)",
        "coordinate": {
"latitude": 50.73934,
        "longitude": 16.64219},
"isRequest": false
    },
    {
        
        name: "Złota kotłownia (139)",
        "coordinate": {
"latitude": 50.741598,
        "longitude": 16.64249},
"isRequest": false
    },
    {
        
        name: "kino (146)",
        "coordinate": {
"latitude": 50.706701,
        "longitude": 16.577241},
"isRequest": false
    },
    {
        
        name: "kino (147)",
        "coordinate": {
"latitude": 50.705621,
        "longitude": 16.576081},
"isRequest": false
    },
    {
        
        name: "skrzyżowanie (275)",
        "coordinate": {
"latitude": 50.751473,
        "longitude": 16.847505},
"isRequest": false
    },
    {
        
        name: "skrzyżowanie (276)",
        "coordinate": {
"latitude": 0,
        "longitude": 0},
"isRequest": false
    },
    {
        
        name: "skrzyżowanie (258)",
        "coordinate": {
"latitude": 50.740013,
        "longitude": 16.735993},
"isRequest": false
    },
    {
        
        name: "skrzyżowanie (266)",
        "coordinate": {
"latitude": 50.721566,
        "longitude": 16.776781},
"isRequest": false
    },
    {
        
        name: "skrzyżowanie (265)",
        "coordinate": {
"latitude": 50.721515,
        "longitude": 16.77651},
"isRequest": false
    },
    {
        
        name: "skrzyżowanie (257)",
        "coordinate": {
"latitude": 50.73995,
        "longitude": 16.736071},
"isRequest": false
    },
    {
        
        name: "Łącznik 1 Maja (45)",
        "coordinate": {
"latitude": 50.689615,
        "longitude": 16.624581},
"isRequest": false
    },
    {
        
        name: "Łącznik 1 Maja (43)",
        "coordinate": {
"latitude": 50.689485,
        "longitude": 16.624483},
"isRequest": false
    },
    {
        
        name: "Świdnicka (184)",
        "coordinate": {
"latitude": 50.725431,
        "longitude": 16.594756},
"isRequest": false
    },
    {
        
        name: "Świdnicka (183)",
        "coordinate": {
"latitude": 50.725431,
        "longitude": 16.594756},
"isRequest": false
    },
    {
        
        name: "Świdnicka Polmozbyt (125)",
        "coordinate": {
"latitude": 50.747698,
        "longitude": 16.626863},
"isRequest": false
    },
    {
        
        name: "Żeromskiego (Pl. Wolności) (60)",
        "coordinate": {
"latitude": 50.685573,
        "longitude": 16.612151},
"isRequest": false
    },
    {
        
        name: "Żłobek (207)",
        "coordinate": {
"latitude": 50.682736,
        "longitude": 16.744183},
"isRequest": false
    },
    {
        
        name: "Żłobek (206)",
        "coordinate": {
"latitude": 50.682943,
        "longitude": 16.742548},
"isRequest": false
    }
]